[
    {
        "name": "35th-Bronzeville-IIT",
        "closed": false,
        "route": "green",
        "position": {
            "lat": 41.831677,
            "lng": -87.625826
        },
        "adjacent_stations": [],
        "transfer_stations": {}
    },
    {
        "name": "43rd",
        "closed": false,
        "route": "green",
        "position": {
            "lat": 41.816462,
            "lng": -87.619021
        },
        "adjacent_stations": [],
        "transfer_stations": {}
    },
    {
        "name": "47th",
        "closed": false,
        "route": "green",
        "position": {
            "lat": 41.809209,
            "lng": -87.618826
        },
        "adjacent_stations": [],
        "transfer_stations": {}
    },
    {
        "name": "51st",
        "closed": false,
        "route": "green",
        "position": {
            "lat": 41.80209,
            "lng": -87.618487
        },
        "adjacent_stations": [],
        "transfer_stations": {}
    },
    {
        "name": "Adams/Wabash",
        "closed": false,
        "route": "green",
        "position": {
            "lat": 41.879507,
            "lng": -87.626037
        },
        "adjacent_stations": [],
        "transfer_stations": {}
    },
    {
        "name": "Ashland",
        "closed": false,
        "route": "green",
        "position": {
            "lat": 41.885269,
            "lng": -87.666969
        },
        "adjacent_stations": [],
        "transfer_stations": {}
    },
    {
        "name": "Ashland/63rd",
        "closed": false,
        "route": "green",
        "position": {
            "lat": 41.77886,
            "lng": -87.663766
        },
        "adjacent_stations": [],
        "transfer_stations": {}
    },
    {
        "name": "Austin",
        "closed": false,
        "route": "green",
        "position": {
            "lat": 41.887293,
            "lng": -87.774135
        },
        "adjacent_stations": [],
        "transfer_stations": {}
    },
    {
        "name": "California",
        "closed": false,
        "route": "green",
        "position": {
            "lat": 41.88422,
            "lng": -87.696234
        },
        "adjacent_stations": [],
        "transfer_stations": {}
    },
    {
        "name": "Central",
        "closed": false,
        "route": "green",
        "position": {
            "lat": 41.887389,
            "lng": -87.76565
        },
        "adjacent_stations": [],
        "transfer_stations": {}
    },
    {
        "name": "Cermak-McCormick Place",
        "closed": false,
        "route": "green",
        "position": {
            "lat": 41.853115,
            "lng": -87.626402
        },
        "adjacent_stations": [],
        "transfer_stations": {}
    },
    {
        "name": "Cicero",
        "closed": false,
        "route": "green",
        "position": {
            "lat": 41.886519,
            "lng": -87.744698
        },
        "adjacent_stations": [],
        "transfer_stations": {}
    },
    {
        "name": "Clark/Lake",
        "closed": false,
        "route": "green",
        "position": {
            "lat": 41.885737,
            "lng": -87.630886
        },
        "adjacent_stations": [],
        "transfer_stations": {}
    },
    {
        "name": "Clinton",
        "closed": false,
        "route": "green",
        "position": {
            "lat": 41.885678,
            "lng": -87.641782
        },
        "adjacent_stations": [],
        "transfer_stations": {}
    },
    {
        "name": "Conservatory",
        "closed": false,
        "route": "green",
        "position": {
            "lat": 41.884904,
            "lng": -87.716523
        },
        "adjacent_stations": [],
        "transfer_stations": {}
    },
    {
        "name": "Cottage Grove",
        "closed": false,
        "route": "green",
        "position": {
            "lat": 41.780309,
            "lng": -87.605857
        },
        "adjacent_stations": [],
        "transfer_stations": {}
    },
    {
        "name": "Damen",
        "closed": false,
        "route": "green",
        "position": {
            "lat": 41.88497405,
            "lng": -87.67689149
        },
        "adjacent_stations": [],
        "transfer_stations": {}
    },
    {
        "name": "Garfield",
        "closed": false,
        "route": "green",
        "position": {
            "lat": 41.795172,
            "lng": -87.618327
        },
        "adjacent_stations": [],
        "transfer_stations": {}
    },
    {
        "name": "Halsted",
        "closed": false,
        "route": "green",
        "position": {
            "lat": 41.778943,
            "lng": -87.644244
        },
        "adjacent_stations": [],
        "transfer_stations": {}
    },
    {
        "name": "Harlem/Lake",
        "closed": false,
        "route": "green",
        "position": {
            "lat": 41.886848,
            "lng": -87.803176
        },
        "adjacent_stations": [],
        "transfer_stations": {}
    },
    {
        "name": "Indiana",
        "closed": false,
        "route": "green",
        "position": {
            "lat": 41.821732,
            "lng": -87.621371
        },
        "adjacent_stations": [],
        "transfer_stations": {}
    },
    {
        "name": "Kedzie",
        "closed": false,
        "route": "green",
        "position": {
            "lat": 41.884321,
            "lng": -87.706155
        },
        "adjacent_stations": [],
        "transfer_stations": {}
    },
    {
        "name": "King Drive",
        "closed": false,
        "route": "green",
        "position": {
            "lat": 41.78013,
            "lng": -87.615546
        },
        "adjacent_stations": [],
        "transfer_stations": {}
    },
    {
        "name": "Laramie",
        "closed": false,
        "route": "green",
        "position": {
            "lat": 41.887163,
            "lng": -87.754986
        },
        "adjacent_stations": [],
        "transfer_stations": {}
    },
    {
        "name": "Morgan",
        "closed": false,
        "route": "green",
        "position": {
            "lat": 41.885586,
            "lng": -87.652193
        },
        "adjacent_stations": [],
        "transfer_stations": {}
    },
    {
        "name": "Oak Park",
        "closed": false,
        "route": "green",
        "position": {
            "lat": 41.886988,
            "lng": -87.793783
        },
        "adjacent_stations": [],
        "transfer_stations": {}
    },
    {
        "name": "Pulaski",
        "closed": false,
        "route": "green",
        "position": {
            "lat": 41.885412,
            "lng": -87.725404
        },
        "adjacent_stations": [],
        "transfer_stations": {}
    },
    {
        "name": "Ridgeland",
        "closed": false,
        "route": "green",
        "position": {
            "lat": 41.887159,
            "lng": -87.783661
        },
        "adjacent_stations": [],
        "transfer_stations": {}
    },
    {
        "name": "Roosevelt",
        "closed": false,
        "route": "green",
        "position": {
            "lat": 41.867405,
            "lng": -87.62659
        },
        "adjacent_stations": [],
        "transfer_stations": {}
    },
    {
        "name": "State/Lake",
        "closed": false,
        "route": "green",
        "position": {
            "lat": 41.88574,
            "lng": -87.627835
        },
        "adjacent_stations": [],
        "transfer_stations": {}
    },
    {
        "name": "Washington/Wabash",
        "closed": false,
        "route": "green",
        "position": {
            "lat": 41.88322,
            "lng": -87.626189
        },
        "adjacent_stations": [],
        "transfer_stations": {}
    }
]